<?xml version="1.0"?>
<gpx version="1.1" creator="GDAL 2.3.2" xmlns:xsi="http://www.w3.org/2001/XMLSchema-instance" xmlns="http://www.topografix.com/GPX/1/1" xsi:schemaLocation="http://www.topografix.com/GPX/1/1 http://www.topografix.com/GPX/1/1/gpx.xsd">
<metadata><bounds minlat="-35.285507529999997" minlon="136.839829900000012" maxlat="-34.054660779999999" maxlon="138.171417999999989"/></metadata>              
<wpt lat="-34.225633" lon="138.019983">
  <name>Info Sign &quot;Forests of the Sea&quot;</name>
</wpt>
<wpt lat="-34.3913" lon="137.950233">
  <name>Info Sign &quot;Aboriginal Burial Grounds&quot;</name>
</wpt>
<wpt lat="-34.941" lon="137.782668">
  <name>Seat</name>
</wpt>
<wpt lat="-34.547" lon="137.884717">
  <name>Info Sign &quot;Ochre and Stone Quarry&quot;</name>
</wpt>
<wpt lat="-34.594133" lon="137.874817">
  <name>Info Sign &quot;Black Point Fish Trap&quot;</name>
</wpt>
<wpt lat="-34.616467" lon="137.903633">
  <name>Info Sign &quot;Black Point Burial Ground&quot;</name>
</wpt>
<wpt lat="-34.761417" lon="137.86145">
  <name>Info Sign &quot;Cudlee Droppings&quot;</name>
</wpt>
<wpt lat="-34.908783" lon="137.794733">
  <name>Info Sign &quot;Natural Shelter&quot;</name>
</wpt>
<wpt lat="-34.908783" lon="137.794733">
  <name>Info Sign &quot;Â King Tommy&quot;</name>
</wpt>
<wpt lat="-35.052333" lon="137.728017">
  <name>Info Sign &quot;Cudlee Creation&quot;</name>
</wpt>
<wpt lat="-35.077333" lon="137.7459">
  <name>Info Sign &quot;Edithburgh Cemetery&quot;</name>
</wpt>
<wpt lat="-35.166367" lon="137.679933">
  <name>Info Sign &quot;Cudlee Dreaming&quot;</name>
</wpt>
<wpt lat="-34.714707" lon="137.487464">
  <name>Barkers Rocks Shelter</name>
</wpt>
<wpt lat="-35.126667" lon="137.581567">
  <name>Info Sign &quot;Kangaroo Dreaming&quot;</name>
</wpt>
<wpt lat="-35.226533" lon="137.16325">
  <name>Info Sign &quot;Wunyerra Creation&quot;</name>
</wpt>
<wpt lat="-35.23665" lon="136.981933">
  <name>Info Sign &quot;Shark Creation&quot;</name>
</wpt>
<wpt lat="-35.1542" lon="136.911967">
  <name>Info Sign &quot;The Earth&quot;</name>
</wpt>
<wpt lat="-35.029233" lon="136.931867">
  <name>Info Sign &quot;Daly Head Creation&quot;</name>
</wpt>
<wpt lat="-34.973333" lon="136.969817">
  <name>Info Sign &quot;Dinosaur Footprints&quot;</name>
</wpt>
<wpt lat="-34.906067" lon="137.013617">
  <name>Info Sign &quot;Yumppoo Dreaming&quot;</name>
</wpt>
<wpt lat="-34.896767" lon="137.004433">
  <name>Info Sign &quot;7 Sisters Dreaming&quot;</name>
</wpt>
<wpt lat="-34.89165" lon="137.456533">
  <name>Info Sign &quot;Hardwick Bay Massacre&quot;</name>
</wpt>
<wpt lat="-34.6724" lon="137.494433">
  <name>Info Sign &quot;Waterhole&quot;</name>
</wpt>
<wpt lat="-34.49615" lon="137.482417">
  <name>Info Sign &quot;Wauraltee&quot;</name>
</wpt>
<wpt lat="-34.32365" lon="137.495067">
  <name>Info Sign &quot;Gynagburra Dreaming&quot;</name>
</wpt>
<wpt lat="-34.135383" lon="137.450583">
  <name>Info Sign &quot;Cape Elizabeth&quot;</name>
</wpt>
<wpt lat="-34.15785" lon="137.46">
  <name>Info Sign &quot;Native Title Fishing Rights&quot;</name>
</wpt>
<wpt lat="-34.67256924" lon="137.494469220000013">
  <name>Toilet: Port Rickaby Caravan Park</name>
</wpt>
<wpt lat="-34.49623155" lon="137.4826495">
  <name>Toilet: Port Victoria Jetty</name>
</wpt>
<wpt lat="-34.07596799" lon="137.545217220000012">
  <name>Toilet: Port Hughes Foreshore</name>
</wpt>
<wpt lat="-34.06649234" lon="137.556117199999989">
  <name>Toilet: Simms Cove Foreshore</name>
</wpt>
<wpt lat="-34.05466078" lon="137.5619874">
  <name>Toilet: Moonta Bay Foreshore</name>
</wpt>
<wpt lat="-34.06408065" lon="137.58445126">
  <name>Toilet: Polgreen Park</name>
</wpt>
<wpt lat="-34.0688434" lon="137.58426524">
  <name>Toilet: Moonta Football Oval</name>
</wpt>
<wpt lat="-34.06730812" lon="137.58925833">
  <name>Toilet: Queen Square</name>
</wpt>
<wpt lat="-34.07420982" lon="137.58679747">
  <name>Toilet: Moonta Cemetery</name>
</wpt>
<wpt lat="-34.06832849" lon="137.595872289999988">
  <name>Toilet: Moonta Tourist Office</name>
</wpt>
<wpt lat="-34.60725815" lon="137.88212887">
  <name>Toilet: Black Point</name>
</wpt>
<wpt lat="-35.27680969" lon="136.9392186">
  <name>Toilet: Innes National Park 1</name>
</wpt>
<wpt lat="-35.27211863" lon="136.8942682">
  <name>Toilet: Innes National Park 10</name>
</wpt>
<wpt lat="-35.23368451" lon="136.8465444">
  <name>Toilet: Innes National Park 14</name>
</wpt>
<wpt lat="-35.28550753" lon="136.8995573">
  <name>Toilet: Innes National Park 15</name>
</wpt>
<wpt lat="-35.22618226" lon="136.847399599999989">
  <name>Toilet: Innes National Park 2</name>
</wpt>
<wpt lat="-35.27524178" lon="136.9384071">
  <name>Toilet: Innes National Park 3</name>
</wpt>
<wpt lat="-35.23830041" lon="136.839829900000012">
  <name>Toilet: Innes National Park 4</name>
</wpt>
<wpt lat="-35.19542412" lon="136.874211300000013">
  <name>Toilet: Innes National Park 5</name>
</wpt>
<wpt lat="-35.2744032" lon="136.895482">
  <name>Toilet: Innes National Park 6</name>
</wpt>
<wpt lat="-35.08618" lon="137.74577">
  <name>Toilet: Edithburgh Institute</name>
</wpt>
<wpt lat="-34.42306759" lon="137.916815570000011">
  <name>Toilet: Ardrossan Town Hall</name>
</wpt>
<wpt lat="-34.77846" lon="137.859618">
  <name>Toilet: Port Vincent Service Station - BP</name>
</wpt>
<wpt lat="-34.42619" lon="137.9092">
  <name>Toilet: Ardrossan Roadhouse - BP</name>
</wpt>
<wpt lat="-34.147807" lon="138.171418">
  <name>Toilet: Port Wakefield Truckstop - BP</name>
</wpt>
<wpt lat="-34.068591" lon="137.591267">
  <name>Toilet: Moonta Service Station - BP</name>
</wpt>
<wpt lat="-34.1695738" lon="138.1549006">
  <name>Toilet: Coles Express Port Wakefield</name>
</wpt>
<wpt lat="-35.08771548" lon="137.74604179">
  <name>Toilet: Edithburgh Motors</name>
</wpt>
<wpt lat="-34.73266399" lon="137.480373289999989">
  <name>Toilet: Bluff Beach</name>
</wpt>
<wpt lat="-34.9237942" lon="137.0107322">
  <name>Toilet: Berry Bay South</name>
</wpt>
<wpt lat="-34.90978861" lon="137.01433708">
  <name>Toilet: Berry Bay North</name>
</wpt>
<wpt lat="-34.22448036" lon="138.018777629999988">
  <name>Toilet: Port Clinton Hall</name>
</wpt>
<wpt lat="-34.28782912" lon="137.99623225">
  <name>Toilet: Price</name>
</wpt>
<wpt lat="-35.1165903" lon="137.51487585000001">
  <name>Toilet: Port Moorowie</name>
</wpt>
<wpt lat="-34.45949612" lon="137.908993759999987">
  <name>Toilet: Parara Bush Camping</name>
</wpt>
<wpt lat="-34.76689329" lon="137.861715550000014">
  <name>Toilet: Port Vincent Marina</name>
</wpt>
<wpt lat="-34.99525122" lon="137.757579740000011">
  <name>Toilet: Wool Bay Jetty</name>
</wpt>
<wpt lat="-35.0237716" lon="136.93990821">
  <name>Toilet: Daly Head Bush Camping</name>
</wpt>
<wpt lat="-34.89980902" lon="137.24440379">
  <name>Toilet: Burners Beach Camping Reserve</name>
</wpt>
<wpt lat="-34.93391542" lon="137.35185131">
  <name>Toilet: Point Turton Jetty</name>
</wpt>
<wpt lat="-34.92994548" lon="137.341789440000014">
  <name>Toilet: Point Turton Old Swimming Centre</name>
</wpt>
<wpt lat="-34.83293011" lon="137.45944472">
  <name>Toilet: Port Minlacowie Bush Camping</name>
</wpt>
<wpt lat="-34.06754383" lon="137.591509269999989">
  <name>Toilet: Ellen Street Carpark</name>
</wpt>
<wpt lat="-35.144817" lon="137.609643">
  <name>Seat</name>
</wpt>
<wpt lat="-35.144877" lon="137.609638">
  <name>Seat</name>
</wpt>
<wpt lat="-35.154503" lon="137.619637">
  <name>Seat</name>
</wpt>
<wpt lat="-35.1546" lon="137.619542">
  <name>Seat</name>
</wpt>
<wpt lat="-35.164948" lon="137.634077">
  <name>Seat</name>
</wpt>
<wpt lat="-35.166745" lon="137.640512">
  <name>Seat</name>
</wpt>
<wpt lat="-35.166535" lon="137.649893">
  <name>Seat</name>
</wpt>
<wpt lat="-35.166572" lon="137.652363">
  <name>Seat</name>
</wpt>
<wpt lat="-35.167513" lon="137.660583">
  <name>Seat</name>
</wpt>
<wpt lat="-35.167803" lon="137.660788">
  <name>Seat</name>
</wpt>
<wpt lat="-35.167502" lon="137.677697">
  <name>Seat</name>
</wpt>
<wpt lat="-35.160517" lon="137.68216">
  <name>Seat</name>
</wpt>
<wpt lat="-35.153967" lon="137.684975">
  <name>Seat</name>
</wpt>
<wpt lat="-35.14706" lon="137.68779">
  <name>Seat</name>
</wpt>
<wpt lat="-35.136857" lon="137.705305">
  <name>Seat</name>
</wpt>
<wpt lat="-35.134503" lon="137.7156">
  <name>Seat</name>
</wpt>
<wpt lat="-34.939853" lon="137.352217">
  <name>Seat</name>
</wpt>
<wpt lat="-34.930333" lon="137.346928">
  <name>Seat</name>
</wpt>
<wpt lat="-34.930088" lon="137.341083">
  <name>Seat</name>
</wpt>
<wpt lat="-34.930088" lon="137.341083">
  <name>Seat</name>
</wpt>
<wpt lat="-34.931325" lon="137.319412">
  <name>Seat</name>
</wpt>
<wpt lat="-34.931388" lon="137.319448">
  <name>Seat</name>
</wpt>
<wpt lat="-34.914562" lon="137.296363">
  <name>Seat</name>
</wpt>
<wpt lat="-34.901242" lon="137.290702">
  <name>Seat</name>
</wpt>
<wpt lat="-34.89569" lon="137.26915">
  <name>Seat</name>
</wpt>
<wpt lat="-34.925235" lon="137.082843">
  <name>Seat</name>
</wpt>
<wpt lat="-34.92525" lon="137.082823">
  <name>Seat</name>
</wpt>
<wpt lat="-34.92939" lon="137.163723">
  <name>Seat</name>
</wpt>
<wpt lat="-34.9294" lon="137.163525">
  <name>Seat</name>
</wpt>
<wpt lat="-34.9294" lon="137.163525">
  <name>Seat</name>
</wpt>
<wpt lat="-34.9294" lon="137.163525">
  <name>Seat</name>
</wpt>
<wpt lat="-34.904357" lon="137.215255">
  <name>Seat</name>
</wpt>
<wpt lat="-34.896498" lon="137.25185">
  <name>Seat</name>
</wpt>
<wpt lat="-34.8965" lon="137.251853">
  <name>Seat</name>
</wpt>
<wpt lat="-34.277202" lon="137.99785">
  <name>Seat</name>
</wpt>
<wpt lat="-34.296262" lon="137.985787">
  <name>Seat</name>
</wpt>
<wpt lat="-34.308695" lon="137.982452">
  <name>Seat</name>
</wpt>
<wpt lat="-34.320812" lon="137.97269">
  <name>Seat</name>
</wpt>
<wpt lat="-34.3388" lon="137.972598">
  <name>Seat</name>
</wpt>
<wpt lat="-34.384577" lon="137.957848">
  <name>Seat</name>
</wpt>
<wpt lat="-34.456433" lon="137.906002">
  <name>Seat</name>
</wpt>
<wpt lat="-34.580573" lon="137.875793">
  <name>Seat</name>
</wpt>
<wpt lat="-34.908995" lon="137.797272">
  <name>Seat</name>
</wpt>
<wpt lat="-34.866017" lon="137.798292">
  <name>Seat</name>
</wpt>
<wpt lat="-34.849553" lon="137.810332">
  <name>Seat</name>
</wpt>
<wpt lat="-34.788587" lon="137.85394">
  <name>Seat</name>
</wpt>
<wpt lat="-34.308695" lon="137.982452">
  <name>Seat</name>
</wpt>
<wpt lat="-34.580573" lon="137.875793">
  <name>Seat</name>
</wpt>
<wpt lat="-34.908995" lon="137.797272">
  <name>Seat</name>
</wpt>
<wpt lat="-34.263953" lon="137.501473">
  <name>Seat</name>
</wpt>
<wpt lat="-34.246828" lon="137.502392">
  <name>Seat</name>
</wpt>
<wpt lat="-34.234243" lon="137.501607">
  <name>Seat</name>
</wpt>
<wpt lat="-34.329392" lon="137.494212">
  <name>Seat</name>
</wpt>
<wpt lat="-34.390617" lon="137.492568">
  <name>Seat</name>
</wpt>
<wpt lat="-34.37372" lon="137.495485">
  <name>Seat</name>
</wpt>
<wpt lat="-34.359277" lon="137.495657">
  <name>Seat</name>
</wpt>
<wpt lat="-34.359292" lon="137.495665">
  <name>Seat</name>
</wpt>
<wpt lat="-34.480847" lon="137.489895">
  <name>Seat</name>
</wpt>
<wpt lat="-34.635488" lon="137.507633">
  <name>Seat</name>
</wpt>
<wpt lat="-34.682685" lon="137.495955">
  <name>Seat</name>
</wpt>
<wpt lat="-34.715852" lon="137.486555">
  <name>Seat</name>
</wpt>
<wpt lat="-34.507055" lon="137.887045">
  <name>Seat</name>
</wpt>
<wpt lat="-34.507055" lon="137.887045">
  <name>Seat</name>
</wpt>
<wpt lat="-34.507055" lon="137.887045">
  <name>Seat</name>
</wpt>
<wpt lat="-34.507055" lon="137.887045">
  <name>Seat</name>
</wpt>
<wpt lat="-34.507055" lon="137.887045">
  <name>Seat</name>
</wpt>
<wpt lat="-34.55782" lon="137.88313">
  <name>Seat</name>
</wpt>
<wpt lat="-34.562255" lon="137.881773">
  <name>Seat</name>
</wpt>
<wpt lat="-34.562255" lon="137.881773">
  <name>Seat</name>
</wpt>
<wpt lat="-34.531112" lon="137.88037">
  <name>Seat</name>
</wpt>
<wpt lat="-34.540867" lon="137.88522">
  <name>Seat</name>
</wpt>
<wpt lat="-34.53587" lon="137.885298">
  <name>Seat</name>
</wpt>
<wpt lat="-34.411277" lon="137.490627">
  <name>Seat</name>
</wpt>
<wpt lat="-34.411277" lon="137.490627">
  <name>Seat</name>
</wpt>
<wpt lat="-34.397495" lon="137.492335">
  <name>Seat</name>
</wpt>
<wpt lat="-34.378537" lon="137.965642">
  <name>Info Sign &quot;Weeds and biodiversity&quot;</name>
</wpt>
<wpt lat="-34.378535" lon="137.965662">
  <name>Info Sign &quot;The salt works at Price&quot;</name>
</wpt>
<wpt lat="-34.378535" lon="137.965662">
  <name>Info Sign &quot;Toot! Can you hear the whistle?&quot;</name>
</wpt>
<wpt lat="-34.287787" lon="137.996125">
  <name>Info Sign &quot;The bustling old town of Price&quot;</name>
</wpt>
<wpt lat="-34.225752" lon="138.019807">
  <name>Info Sign &quot;Everyone's favourite  - the 'Sleepy'&quot;</name>
</wpt>
<wpt lat="-34.173238" lon="138.003235">
  <name>Info Sign &quot;The threat of Bridal Creeper&quot;</name>
</wpt>
<wpt lat="-34.130735" lon="138.011347">
  <name>Info Sign &quot;Archaeology&quot;</name>
</wpt>
<wpt lat="-34.132067" lon="138.028793">
  <name>Info Sign &quot;Welcome to Country&quot;</name>
</wpt>
<wpt lat="-34.144672" lon="138.058882">
  <name>Info Sign &quot;Port Arthur Prison&quot;</name>
</wpt>
<wpt lat="-34.147507" lon="138.064017">
  <name>Info Sign &quot;Clinton Wetlands Sanctuary Zone&quot;</name>
</wpt>
<wpt lat="-34.457273" lon="137.910222">
  <name>Info Sign &quot;Whale Creation&quot;</name>
</wpt>
<wpt lat="-34.457298" lon="137.910213">
  <name>Info Sign &quot;The story of the well&quot;</name>
</wpt>
<wpt lat="-34.457298" lon="137.910213">
  <name>Info Sign &quot;Raising a road&quot;</name>
</wpt>
<wpt lat="-34.457298" lon="137.910213">
  <name>Info Sign &quot;Wildlife wonders&quot;</name>
</wpt>
<wpt lat="-34.457298" lon="137.910213">
  <name>Info Sign &quot;How outlaws named the gully&quot;</name>
</wpt>
<wpt lat="-34.457298" lon="137.910213">
  <name>Info Sign &quot;Rogues Point jetty and wells&quot;</name>
</wpt>
<wpt lat="-34.457298" lon="137.910213">
  <name>Info Sign &quot;Saving our rocky reefs&quot;</name>
</wpt>
<wpt lat="-34.497788" lon="137.893432">
  <name>Info Sign &quot;Copper on Yorke Peninsula&quot;</name>
</wpt>
<wpt lat="-34.497788" lon="137.893432">
  <name>Info Sign &quot;Hunting in open country&quot;</name>
</wpt>
<wpt lat="-34.597165" lon="137.875033">
  <name>Info Sign &quot;Shorebirds: international travellers&quot;</name>
</wpt>
<wpt lat="-34.6164" lon="137.903678">
  <name>Info Sign &quot;Weeds and biodiversity&quot;</name>
</wpt>
<wpt lat="-34.616407" lon="137.90196">
  <name>Info Sign &quot;Herding the billy goats&quot;</name>
</wpt>
<wpt lat="-34.616407" lon="137.90196">
  <name>Info Sign &quot;A haven for birds and butterflies&quot;</name>
</wpt>
<wpt lat="-34.616407" lon="137.90196">
  <name>Info Sign &quot;A preservation of time&quot;</name>
</wpt>
<wpt lat="-34.616407" lon="137.90196">
  <name>Info Sign &quot;A world of coastal diversity&quot;</name>
</wpt>
<wpt lat="-34.616407" lon="137.90196">
  <name>Info Sign &quot;Fishing&quot;</name>
</wpt>
<wpt lat="-34.616407" lon="137.90196">
  <name>Info Sign &quot;Yorke Peninsula's coastal hunters&quot;</name>
</wpt>
<wpt lat="-34.722643" lon="137.868325">
  <name>Info Sign &quot;Yorke Peninsula's Brown Snake&quot;</name>
</wpt>
<wpt lat="-34.722652" lon="137.86833">
  <name>Info Sign &quot;Gadli Droppings&quot;</name>
</wpt>
<wpt lat="-34.561885" lon="137.881802">
  <name>Info Sign &quot;REX Minerals&quot;</name>
</wpt>
<wpt lat="-34.776062" lon="137.859892">
  <name>Info Sign &quot;Fishing and Port Vincent&quot;</name>
</wpt>
<wpt lat="-34.776068" lon="137.859867">
  <name>Info Sign &quot;Restoring the balance&quot;</name>
</wpt>
<wpt lat="-34.776068" lon="137.859867">
  <name>Info Sign &quot;Yorke or Cambaceres Peninsula?&quot;</name>
</wpt>
<wpt lat="-34.776068" lon="137.859867">
  <name>Info Sign &quot;Natural Shelters&quot;</name>
</wpt>
<wpt lat="-34.776068" lon="137.859867">
  <name>Info Sign &quot;Everyone's favourite - the 'Sleepy'&quot;</name>
</wpt>
<wpt lat="-34.776068" lon="137.859867">
  <name>Info Sign &quot;The Stansbury chalk mines&quot;</name>
</wpt>
<wpt lat="-34.904297" lon="137.795933">
  <name>Info Sign &quot;Restoring the balance&quot;</name>
</wpt>
<wpt lat="-35.040632" lon="137.763372">
  <name>Info Sign &quot;Saving our rocky reefs&quot;</name>
</wpt>
<wpt lat="-35.065722" lon="137.734705">
  <name>Info Sign &quot;Weeds and biodiversity&quot;</name>
</wpt>
<wpt lat="-34.323842" lon="137.495673">
  <name>Info Sign &quot;Protect our Country&quot;</name>
</wpt>
<wpt lat="-34.313022" lon="137.500185">
  <name>Info Sign &quot;Ceremony&quot;</name>
</wpt>
<wpt lat="-34.313022" lon="137.500185">
  <name>Info Sign &quot;Tracks&quot;</name>
</wpt>
<wpt lat="-34.313043" lon="137.500197">
  <name>Info Sign &quot;The threat of Bridal Creeper&quot;</name>
</wpt>
<wpt lat="-34.313043" lon="137.500197">
  <name>Info Sign &quot;The importance of bees&quot;</name>
</wpt>
<wpt lat="-34.432775" lon="137.487197">
  <name>Info Sign &quot;The story of Buthera's Rock&quot;</name>
</wpt>
<wpt lat="-34.447488" lon="137.493818">
  <name>Info Sign &quot;The grumpy excavator&quot;</name>
</wpt>
<wpt lat="-34.496207" lon="137.482283">
  <name>Info Sign &quot;Waraldi&quot;</name>
</wpt>
<wpt lat="-34.496207" lon="137.482283">
  <name>Info Sign &quot;Goose Island Sanctuary Zone&quot;</name>
</wpt>
<wpt lat="-34.496235" lon="137.482175">
  <name>Info Sign &quot;Like it and lump it!&quot;</name>
</wpt>
<wpt lat="-34.52094" lon="137.477622">
  <name>Info Sign &quot;A beautiful paper-thin 'shell'&quot;</name>
</wpt>
<wpt lat="-34.520928" lon="137.477602">
  <name>Info Sign &quot;Black Bob's Rd&quot;</name>
</wpt>
<wpt lat="-34.586488" lon="137.511253">
  <name>Info Sign &quot;Gayinbara Dreaming&quot;</name>
</wpt>
<wpt lat="-34.31381" lon="137.499632">
  <name>Info Sign &quot;A haven for birds and butterflies&quot;</name>
</wpt>
<wpt lat="-34.23414" lon="137.50191">
  <name>Info Sign &quot;Coastal sand dunes of Tippara&quot;</name>
</wpt>
<wpt lat="-34.23414" lon="137.50191">
  <name>Info Sign &quot;Cape Elizabeth Samphire Flats&quot;</name>
</wpt>
<wpt lat="-34.666985" lon="137.494005">
  <name>Info Sign &quot;Saving our rocky reefs&quot;</name>
</wpt>
<wpt lat="-34.667013" lon="137.49398">
  <name>Info Sign &quot;Our fragile beaches and dunes&quot;</name>
</wpt>
<wpt lat="-34.714697" lon="137.487472">
  <name>Info Sign &quot;The Kangaroo - an Aussie icon&quot;</name>
</wpt>
<wpt lat="-34.7147" lon="137.487467">
  <name>Info Sign &quot;A haven for birds and butterflies&quot;</name>
</wpt>
<wpt lat="-34.7147" lon="137.487467">
  <name>Info Sign &quot;Lore of the Land&quot;</name>
</wpt>
<wpt lat="-34.714672" lon="137.487422">
  <name>Info Sign &quot;There's no place like home&quot;</name>
</wpt>
<wpt lat="-34.750438" lon="137.479525">
  <name>Info Sign &quot;Ever wondered what this is?&quot;</name>
</wpt>
<wpt lat="-34.750442" lon="137.479523">
  <name>Info Sign &quot;The threat of Bridal Creeper&quot;</name>
</wpt>
<wpt lat="-34.750442" lon="137.479523">
  <name>Info Sign &quot;Restoring the balance&quot;</name>
</wpt>
<wpt lat="-34.940093" lon="137.352657">
  <name>Info Sign &quot;Life in Point Turton in 1914&quot;</name>
</wpt>
<wpt lat="-34.93388" lon="137.351807">
  <name>Info Sign &quot;Point Turton's grain&quot;</name>
</wpt>
<wpt lat="-34.93388" lon="137.351807">
  <name>Info Sign &quot;Point Turton's flux quarries&quot;</name>
</wpt>
<wpt lat="-34.93399" lon="137.351865">
  <name>Info Sign &quot;Point Turton's early history&quot;</name>
</wpt>
<wpt lat="-34.934018" lon="137.35193">
  <name>Info Sign &quot;Point Turton - the town&quot;</name>
</wpt>
<wpt lat="-34.930342" lon="137.3467">
  <name>Info Sign &quot;An explosive history&quot;</name>
</wpt>
<wpt lat="-34.93035" lon="137.346688">
  <name>Info Sign &quot;Weeds and biodiversity&quot;</name>
</wpt>
<wpt lat="-34.901185" lon="137.29073">
  <name>Info Sign &quot;Bushfoods and Medicines&quot;</name>
</wpt>
<wpt lat="-34.89562" lon="137.269123">
  <name>Info Sign &quot;Have you seen a goanna?&quot;</name>
</wpt>
<wpt lat="-34.896557" lon="137.25167">
  <name>Info Sign &quot;Saving our rocky reefs&quot;</name>
</wpt>
<wpt lat="-34.896557" lon="137.25167">
  <name>Info Sign &quot;Ever wondered what this is?&quot;</name>
</wpt>
<wpt lat="-34.896557" lon="137.25167">
  <name>Info Sign &quot;Saving our beach-nesting birds&quot;</name>
</wpt>
<wpt lat="-34.914192" lon="137.452407">
  <name>Info Sign &quot;Can you spot the difference?&quot;</name>
</wpt>
<wpt lat="-34.893728" lon="137.455858">
  <name>Info Sign &quot;Caring for our environment&quot;</name>
</wpt>
<wpt lat="-34.893728" lon="137.455858">
  <name>Info Sign &quot;Ways to care for our coast&quot;</name>
</wpt>
<wpt lat="-34.891748" lon="137.456527">
  <name>Info Sign &quot;Saving our rocky reefs&quot;</name>
</wpt>
<wpt lat="-34.89173" lon="137.456588">
  <name>Info Sign &quot;Helping care for our coast&quot;</name>
</wpt>
<wpt lat="-34.89444" lon="137.014382">
  <name>Info Sign &quot;7 Sisters Dreaming&quot;</name>
</wpt>
<wpt lat="-34.89422" lon="137.014487">
  <name>Info Sign &quot;Why was the lighthouse built?&quot;</name>
</wpt>
<wpt lat="-34.896618" lon="137.01045">
  <name>Info Sign &quot;Saving our rocky reefs&quot;</name>
</wpt>
<wpt lat="-34.896618" lon="137.01045">
  <name>Info Sign &quot;Armour against the elements&quot;</name>
</wpt>
<wpt lat="-34.896843" lon="137.010507">
  <name>Info Sign &quot;A delicate balancing act&quot;</name>
</wpt>
<wpt lat="-34.906102" lon="137.013738">
  <name>Info Sign &quot;Saving the Bottlenose Dolphin&quot;</name>
</wpt>
<wpt lat="-34.906102" lon="137.013738">
  <name>Info Sign &quot;Yambu Dreaming&quot;</name>
</wpt>
<wpt lat="-34.952238" lon="136.974257">
  <name>Info Sign &quot;Connection to Country&quot;</name>
</wpt>
<wpt lat="-34.973367" lon="136.969768">
  <name>Info Sign &quot;Dinosaur Footprints&quot;</name>
</wpt>
<wpt lat="-34.973367" lon="136.969768">
  <name>Info Sign &quot;Our fragile beaches and dunes&quot;</name>
</wpt>
<wpt lat="-35.023953" lon="136.940007">
  <name>Info Sign &quot;Weeds and biodiversity&quot;</name>
</wpt>
<wpt lat="-35.023942" lon="136.940023">
  <name>Info Sign &quot;Have you seen a Goanna?&quot;</name>
</wpt>
<wpt lat="-35.091928" lon="136.958885">
  <name>Info Sign &quot;A delicate balancing act&quot;</name>
</wpt>
<wpt lat="-35.091928" lon="136.958885">
  <name>Info Sign &quot;have you seen a goanna?&quot;</name>
</wpt>
<wpt lat="-35.09178" lon="136.968582">
  <name>Info Sign &quot;Saving the Bottlenose Dolphin&quot;</name>
</wpt>
<wpt lat="-35.09178" lon="136.968582">
  <name>Info Sign &quot;The Earth&quot;</name>
</wpt>
<wpt lat="-34.902447" lon="137.033202">
  <name>Info Sign &quot;Corny Point indigenous plants&quot;</name>
</wpt>
<wpt lat="-34.832945" lon="137.458923">
  <name>Info Sign &quot;Yorke Peninsula's Brown Snake&quot;</name>
</wpt>
<wpt lat="-34.832945" lon="137.458923">
  <name>Info Sign &quot;Saving our rocky reefs&quot;</name>
</wpt>
<wpt lat="-35.209217" lon="137.189155">
  <name>Info Sign &quot;Can you spot the difference?&quot;</name>
</wpt>
<wpt lat="-35.178252" lon="137.21335">
  <name>Info Sign &quot;Armour against the elements&quot;</name>
</wpt>
<wpt lat="-35.178248" lon="137.213353">
  <name>Info Sign &quot;Why is this bay so foul?&quot;</name>
</wpt>
<wpt lat="-35.236612" lon="137.163525">
  <name>Info Sign &quot;Hunting in open country&quot;</name>
</wpt>
<wpt lat="-35.108097" lon="137.401243">
  <name>Info Sign &quot;Saving our beach-nesting birds&quot;</name>
</wpt>
<wpt lat="-35.108245" lon="137.401278">
  <name>Info Sign &quot;Saving our rocky reefs&quot;</name>
</wpt>
<wpt lat="-35.108245" lon="137.401278">
  <name>Info Sign &quot;What kind of mozzie?&quot;</name>
</wpt>
<wpt lat="-35.111587" lon="137.498595">
  <name>Info Sign &quot;The Kangaroo - an Aussie icon&quot;</name>
</wpt>
<wpt lat="-35.126338" lon="137.581437">
  <name>Info Sign &quot;Shorebirds: international travellers&quot;</name>
</wpt>
<wpt lat="-35.132497" lon="137.588153">
  <name>Info Sign &quot;Saving the Bottlenose Dolphin&quot;</name>
</wpt>
<wpt lat="-35.161678" lon="137.631772">
  <name>Info Sign &quot;Waterholes&quot;</name>
</wpt>
<wpt lat="-35.161715" lon="137.63178">
  <name>Info Sign &quot;The kindness of locals&quot;</name>
</wpt>
<wpt lat="-35.16664" lon="137.641403">
  <name>Info Sign &quot;WOW!! Did you see that?&quot;</name>
</wpt>
<wpt lat="-35.16664" lon="137.641403">
  <name>Info Sign &quot;Investigator Strait Heritage Trail&quot;</name>
</wpt>
<wpt lat="-35.021385" lon="137.608763">
  <name>Info Sign &quot;Can you spot the difference?&quot;</name>
</wpt>
<wpt lat="-35.114388" lon="137.757663">
  <name>Info Sign &quot;Our fragile beaches and dunes&quot;</name>
</wpt>
<wpt lat="-35.114388" lon="137.757663">
  <name>Info Sign &quot;A haven for birds and butterflies&quot;</name>
</wpt>
<wpt lat="-35.114382" lon="137.75767">
  <name>Info Sign &quot;Edithburgh tidal swimming pool&quot;</name>
</wpt>
<wpt lat="-35.053208" lon="137.724858">
  <name>Info Sign &quot;Coobowie Inlet Sanctuary Zone&quot;</name>
</wpt>
<wpt lat="-34.14744" lon="138.06393">
  <name>Info Sign &quot;A biodiverse conservation park&quot;</name>
</wpt>
<wpt lat="-34.147463" lon="138.064015">
  <name>Info Sign &quot;Yorkes or Cambaceres Peninsula?&quot;</name>
</wpt>
<wpt lat="-34.2893" lon="138.012275">
  <name>Info Sign &quot;Loading at the Price Wharf&quot;</name>
</wpt>
<wpt lat="-34.290015" lon="137.9936">
  <name>Info Sign &quot;Cheetham solar salt products&quot;</name>
</wpt>
<wpt lat="-34.290017" lon="137.993598">
  <name>Info Sign &quot;The small invaders&quot;</name>
</wpt>
<wpt lat="-34.361138" lon="137.989115">
  <name>Info Sign &quot;Saving our fragile sand dunes&quot;</name>
</wpt>
<wpt lat="-34.36116" lon="137.9891">
  <name>Info Sign &quot;Tiddy Widdy Beach&quot;</name>
</wpt>
<wpt lat="-34.437103" lon="137.905982">
  <name>Info Sign &quot;Viterra storage and handling&quot;</name>
</wpt>
<wpt lat="-34.457175" lon="137.910118">
  <name>Info Sign &quot;A sad day for the community&quot;</name>
</wpt>
<wpt lat="-34.457397" lon="137.910213">
  <name>Info Sign &quot;A tragic whale stranding&quot;</name>
</wpt>
<wpt lat="-34.60708" lon="137.881765">
  <name>Info Sign &quot;Black Point Walking Trail&quot;</name>
</wpt>
<wpt lat="-34.617937" lon="137.90385">
  <name>Info Sign &quot;Black Point Walking Trail&quot;</name>
</wpt>
<wpt lat="-34.61794" lon="137.903897">
  <name>Info Sign &quot;Black Point - always a favourite&quot;</name>
</wpt>
<wpt lat="-34.61794" lon="137.903897">
  <name>Info Sign &quot;Port Julia Red Shed&quot;</name>
</wpt>
<wpt lat="-34.66485" lon="137.878595">
  <name>Info Sign &quot;Port Julia Red Shed&quot;</name>
</wpt>
<wpt lat="-34.15924" lon="137.460173">
  <name>Info Sign &quot;Live fast, die young: a squid's life&quot;</name>
</wpt>
<wpt lat="-34.15924" lon="137.460173">
  <name>Info Sign &quot;Native Title Fishing Rights&quot;</name>
</wpt>
<wpt lat="-34.15924" lon="137.460173">
  <name>Info Sign &quot;Cape Elizabeth Sanctuary Zone&quot;</name>
</wpt>
<wpt lat="-34.15924" lon="137.460173">
  <name>Info Sign &quot;Cape Elizabeth&quot;</name>
</wpt>
<wpt lat="-34.135502" lon="137.45024">
  <name>Info Sign &quot;Cape Elizabeth Samphire Flats&quot;</name>
</wpt>
<wpt lat="-34.135502" lon="137.45024">
  <name>Info Sign &quot;Coastal sand dunes of Tippara&quot;</name>
</wpt>
<wpt lat="-34.805463" lon="137.839588">
  <name>Info Sign &quot;Creatively improving our patch&quot;</name>
</wpt>
<wpt lat="-34.805463" lon="137.839588">
  <name>Info Sign &quot;Devil Gully coastal conservation&quot;</name>
</wpt>
<wpt lat="-34.805442" lon="137.836977">
  <name>Info Sign &quot;Saving our beach-nesting birds&quot;</name>
</wpt>
<wpt lat="-34.895162" lon="137.793138">
  <name>Info Sign &quot;The long-lived Western Myall&quot;</name>
</wpt>
<wpt lat="-34.895162" lon="137.793147">
  <name>Info Sign &quot;The importance of bees&quot;</name>
</wpt>
<wpt lat="-34.895162" lon="137.793147">
  <name>Info Sign &quot;Yorke Peninsula's Brown Snake&quot;</name>
</wpt>
<wpt lat="-34.895162" lon="137.793147">
  <name>Info Sign &quot;There's no place like home&quot;</name>
</wpt>
<wpt lat="-34.992262" lon="137.75796">
  <name>Info Sign &quot;Viterra storage and handling&quot;</name>
</wpt>
<wpt lat="-35.132225" lon="137.587828">
  <name>Info Sign &quot;Saving our fragile sand dunes&quot;</name>
</wpt>
<wpt lat="-35.132225" lon="137.587828">
  <name>Info Sign &quot;Shipping at Sandy Water&quot;</name>
</wpt>
<wpt lat="-35.108488" lon="137.401267">
  <name>Info Sign &quot;Ever wonder what this is?&quot;</name>
</wpt>
<wpt lat="-35.2102" lon="137.189383">
  <name>Info Sign &quot;Saving the Hooded Plover&quot;</name>
</wpt>
<wpt lat="-35.2102" lon="137.189383">
  <name>Info Sign &quot;Helping our smallest possum&quot;</name>
</wpt>
<wpt lat="-35.2102" lon="137.189383">
  <name>Info Sign &quot;Armour against the elements&quot;</name>
</wpt>
<wpt lat="-35.23635" lon="136.981703">
  <name>Info Sign &quot;The ambush arachnid&quot;</name>
</wpt>
<wpt lat="-35.23635" lon="136.981703">
  <name>Info Sign &quot;Walk the Yorke - Corny Point&quot;</name>
</wpt>
<wpt lat="-34.788805" lon="137.853795">
  <name>Info Sign &quot;Walks, wildlife and wonders&quot;</name>
</wpt>
<wpt lat="-34.960162" lon="137.390105">
  <name>Info Sign &quot;Yorke Peninsula's coastal hunters&quot;</name>
</wpt>
<wpt lat="-34.946627" lon="137.400943">
  <name>Info Sign &quot;A round of golf on a sandbar?&quot;</name>
</wpt>
<wpt lat="-34.946605" lon="137.40088">
  <name>Info Sign &quot;Weeds and biodiversity&quot;</name>
</wpt>
<wpt lat="-34.946605" lon="137.40088">
  <name>Info Sign &quot;The ambush arachnid&quot;</name>
</wpt>
<wpt lat="-34.946605" lon="137.40088">
  <name>Info Sign &quot;Saving our fragile sand dunes&quot;</name>
</wpt>
<wpt lat="-34.946605" lon="137.40088">
  <name>Info Sign &quot;The fragile beauty of the coast&quot;</name>
</wpt>
<wpt lat="-34.946605" lon="137.40088">
  <name>Info Sign &quot;The jetty - heart of Port Rickaby&quot;</name>
</wpt>
<wpt lat="-34.946605" lon="137.40088">
  <name>Info Sign &quot;Port Rickaby wildlife&quot;</name>
</wpt>
<wpt lat="-34.586493" lon="137.511245">
  <name>Info Sign &quot;Saving our fragile sand dunes&quot;</name>
</wpt>
<wpt lat="-34.586493" lon="137.511245">
  <name>Info Sign &quot;The grumpy excavator&quot;</name>
</wpt>
<wpt lat="-34.432853" lon="137.487197">
  <name>Info Sign &quot;A Nharangga Dreaming&quot;</name>
</wpt>
<wpt lat="-34.432853" lon="137.487197">
  <name>Info Sign &quot;Point Pearce Community&quot;</name>
</wpt>
<wpt lat="-34.29649" lon="137.502888">
  <name>Info Sign &quot;Yorke Peninsula's coastal hunters&quot;</name>
</wpt>
<wpt lat="-34.323723" lon="137.495275">
  <name>Info Sign &quot;3 eyelids and 4 minutes sleep!&quot;</name>
</wpt>
<wpt lat="-34.693514" lon="137.878297">
  <name>Stile</name>
</wpt>
<wpt lat="-34.722739" lon="137.868261">
  <name>Stile</name>
</wpt>
<wpt lat="-34.225388" lon="138.020052">
  <name>Seat</name>
</wpt>
<wpt lat="-34.287876" lon="137.996064">
  <name>Seat</name>
</wpt>
<wpt lat="-34.424628" lon="137.920766">
  <name>Seat</name>
</wpt>
<wpt lat="-34.48361" lon="137.898089">
  <name>Seat</name>
</wpt>
<wpt lat="-34.569886" lon="137.880908">
  <name>Seat</name>
</wpt>
<wpt lat="-34.665389" lon="137.878306">
  <name>Seat</name>
</wpt>
<wpt lat="-34.77642" lon="137.860502">
  <name>Seat</name>
</wpt>
<wpt lat="-34.910438" lon="137.800611">
  <name>Seat</name>
</wpt>
<wpt lat="-34.992398" lon="137.757897">
  <name>Seat</name>
</wpt>
<wpt lat="-35.048755" lon="137.726738">
  <name>Seat</name>
</wpt>
<wpt lat="-35.084876" lon="137.748381">
  <name>Seat</name>
</wpt>
<wpt lat="-35.237574" lon="136.980982">
  <name>Seat</name>
</wpt>
<wpt lat="-34.906249" lon="137.050476">
  <name>Seat</name>
</wpt>
<wpt lat="-34.93403" lon="137.351821">
  <name>Seat</name>
</wpt>
<wpt lat="-34.893842" lon="137.45585">
  <name>Seat</name>
</wpt>
<wpt lat="-34.732392" lon="137.479288">
  <name>Seat</name>
</wpt>
<wpt lat="-34.6724" lon="137.494369">
  <name>Seat</name>
</wpt>
<wpt lat="-34.34607" lon="137.482744">
  <name>Seat</name>
</wpt>
<wpt lat="-34.323902" lon="137.494867">
  <name>Seat</name>
</wpt>
<wpt lat="-34.940468" lon="137.744738">
  <name>Seat</name>
</wpt>
<wpt lat="-34.984683" lon="137.75656">
  <name>Seat</name>
</wpt>
<wpt lat="-35.040558" lon="137.763415">
  <name>Seat</name>
</wpt>
<wpt lat="-35.018992" lon="137.761485">
  <name>Seat</name>
</wpt>
<wpt lat="-35.030915" lon="137.76247">
  <name>Seat</name>
</wpt>
<wpt lat="-35.042382" lon="137.748103">
  <name>Seat</name>
</wpt>
<wpt lat="-35.045748" lon="137.728917">
  <name>Seat</name>
</wpt>
<wpt lat="-34.361167" lon="137.989087">
  <name>Macs Beach Shelter</name>
</wpt>
<wpt lat="-34.131993" lon="138.028549">
  <name>Port Arthur Shelter</name>
</wpt>
<wpt lat="-35.040287" lon="137.763295">
  <name>Hickeys Point Shelter</name>
</wpt>
<wpt lat="-35.138857" lon="137.702095">
  <name>Wattle Point Shelter</name>
</wpt>
<wpt lat="-35.132401" lon="137.58811">
  <name>Kemp Bay Shelter</name>
</wpt>
<wpt lat="-35.111572" lon="137.49859">
  <name>Mozzie Flat Shelter</name>
</wpt>
<wpt lat="-35.108473" lon="137.401303">
  <name>Sturt Bay Shelter</name>
</wpt>
<wpt lat="-35.179377" lon="137.211177">
  <name>Foul Bay Shelter</name>
</wpt>
<wpt lat="-35.091875" lon="136.958898">
  <name>Formby Bay (Baby Lizards) Shelter </name>
</wpt>
<wpt lat="-35.023902" lon="136.94001">
  <name>Daly Head Shelter</name>
</wpt>
<wpt lat="-34.896555" lon="137.25167">
  <name>Burners Beach Shelter</name>
</wpt>
<wpt lat="-34.827264" lon="137.459264">
  <name>Port Minlacowie Shelter</name>
</wpt>
<wpt lat="-34.586518" lon="137.511224">
  <name>Wauraltee Shelter</name>
</wpt>
<wpt lat="-34.555969" lon="137.881876">
  <name>Rex Shelter</name>
</wpt>
<wpt lat="-34.802826" lon="137.841817">
  <name>Devils Gully Shelter</name>
</wpt>
<wpt lat="-34.313083" lon="137.500191">
  <name>Balgowan North Shelter</name>
</wpt>
<wpt lat="-34.234169" lon="137.501904">
  <name>Gap Shelter</name>
</wpt>
<wpt lat="-34.432817" lon="137.487168">
  <name>Point Pearce Shelter</name>
</wpt>
<wpt lat="-34.1851049" lon="138.1463441">
  <name>Toilet: Wakefield Street</name>
</wpt>
<wpt lat="-34.18787663" lon="138.145235500000013">
  <name>Toilet: Wharf Crescent</name>
</wpt>
<wpt lat="-34.22533289" lon="138.01994882">
  <name>Toilet: Port Clinton Caravan Park</name>
</wpt>
<wpt lat="-34.42289084" lon="137.9217289">
  <name>Toilet: Ardrossan Jetty </name>
</wpt>
<wpt lat="-34.43465481" lon="137.9157504">
  <name>Toilet: Ardossan Boat Ramp</name>
</wpt>
<wpt lat="-34.57513351" lon="137.87786220000001">
  <name>Toilet: Pine Point Community Hall</name>
</wpt>
<wpt lat="-34.32420399" lon="137.4932782">
  <name>Toilet: Balgowan Foreshore Reserve</name>
</wpt>
<wpt lat="-34.66490311" lon="137.87857939">
  <name>Toilet: Port Julia Foreshore</name>
</wpt>
<wpt lat="-34.77649335" lon="137.860343199999988">
  <name>Toilet: Port Vincent Wharf</name>
</wpt>
<wpt lat="-34.77794121" lon="137.8621277">
  <name>Toilet: Port Vincent Institute</name>
</wpt>
<wpt lat="-34.90379331" lon="137.7966826">
  <name>Toilet: Stansbury Boat Ramp</name>
</wpt>
<wpt lat="-34.90958479" lon="137.79924170000001">
  <name>Toilet: Stansbury Foreshore</name>
</wpt>
<wpt lat="-35.04451167" lon="137.731554499999987">
  <name>Toilet: Coobowie Public Reserve</name>
</wpt>
<wpt lat="-35.08203585" lon="137.748057569999986">
  <name>Toilet: Edithburgh Swimming Centre</name>
</wpt>
<wpt lat="-34.89297805" lon="137.4561281">
  <name>Toilet: Hardwicke Bay Public Reserve</name>
</wpt>
<wpt lat="-35.23798975" lon="136.98077117">
  <name>Toilet: Marion Bay Community Hall</name>
</wpt>
<wpt lat="-34.91566962" lon="137.163848300000012">
  <name>Toilet: The Pines Community Centre</name>
</wpt>
<wpt lat="-34.92493171" lon="137.0820479">
  <name>Toilet: Corny Point Oval</name>
</wpt>
<wpt lat="-34.94695072" lon="137.355281100000013">
  <name>Toilet: Point Turton Public Reserve</name>
</wpt>
</gpx>
